[
  {"name": "Ruissalo", "region": "Turku archipelago", "lat": 60.4339, "lon": 22.1653},
  {"name": "Naantali", "region": "Turku archipelago", "lat": 60.4678, "lon": 22.0281},
  {"name": "Parainen", "region": "Turku archipelago", "lat": 60.3042, "lon": 22.2936},
  {"name": "Korppoo", "region": "Turku archipelago", "lat": 60.1533, "lon": 21.6550},
  {"name": "Suomenlinna", "region": "Helsinki archipelago", "lat": 60.1449, "lon": 24.9881},
  {"name": "Lauttasaari", "region": "Helsinki archipelago", "lat": 60.1567, "lon": 24.8678},
  {"name": "Vuosaari", "region": "Helsinki archipelago", "lat": 60.2089, "lon": 25.1425},
  {"name": "Santahamina", "region": "Helsinki archipelago", "lat": 60.1342, "lon": 25.0422},
  {"name": "Hietaniemi", "region": "Helsinki", "lat": 60.1779, "lon": 24.9111},
  {"name": "Aurinkolahti", "region": "Helsinki", "lat": 60.2044, "lon": 25.1578},
  {"name": "Pihlajasaari", "region": "Helsinki", "lat": 60.1456, "lon": 24.9217},
  {"name": "Björköby", "region": "Vaasa archipelago", "lat": 63.1050, "lon": 21.6300},
  {"name": "Replot", "region": "Vaasa archipelago", "lat": 63.2300, "lon": 21.4200},
  {"name": "Vassor", "region": "Vaasa archipelago", "lat": 63.0950, "lon": 21.5850},
  {"name": "Yyteri", "region": "Pori", "lat": 61.5733, "lon": 21.4331},
  {"name": "Nallikari", "region": "Oulu", "lat": 65.0586, "lon": 25.4114},
  {"name": "Kalajoki", "region": "Kalajoki", "lat": 64.2667, "lon": 23.9500},
  {"name": "Hanko", "region": "Hanko", "lat": 59.8231, "lon": 22.9633},
  {"name": "Kotka", "region": "Kotka", "lat": 60.4667, "lon": 26.9458},
  {"name": "Lappeenranta", "region": "Lappeenranta", "lat": 61.0583, "lon": 28.1861},
  {"name": "Rauma", "region": "Rauma", "lat": 61.1272, "lon": 21.5094},
  {"name": "Kokkola", "region": "Kokkola", "lat": 63.8383, "lon": 23.1306},
  {"name": "Pietarsaari", "region": "Pietarsaari", "lat": 63.6747, "lon": 22.7028},
  {"name": "Kemi", "region": "Kemi", "lat": 65.7361, "lon": 24.5625},
  {"name": "Tornio", "region": "Tornio", "lat": 65.8481, "lon": 24.1467}
]
